Wind ID,Date/Time,Latitude,Longitude,Nearest town,State,Max Gust speed,Comments,,,
5620,3/01/2010 1:30,-30.5151,151.665,ARMIDALE,NSW,0,Weatherzone photos near Armidale showed trees down as a result of wind damage between about 12:30 and 1pm local time on 3/1/10. Severe thunderstorm with wind damage just missed Armidale early afternoon on 3/1/10.,,,
5621,5/01/2010 0:43,-35.1318,147.4179,WAGGA WAGGA AERODROME,NSW,51,51 knot  gust recorded at Wagga Wagga airport AWS at 0043 UTC on 5/1/10. Thunderstorm with damaging wind gust at Wagga Wagga on 5/1/10.,,,
5622,10/01/2010 7:00,-31.2651,149.2679,COONABARABRAN,NSW,0,"Roof damage from severe winds with a thunderstorm at Coonabarabran on 10/1/10 reported by the SES, time was probably roughly 6pm local (42 knot gust at 6:17pm). Water damage also reported - may have been heavy (severe) rain or just moderate rain after roof damage occurred. Thunderstorm with strong winds and possibly heavy rain at Coonabarabran on 10/1/10.",,,
5623,13/01/2010 7:46,-30.9484,150.2511,GUNNEDAH AERODROME,NSW,50,49 knot wind gust reported at 0746 UTC followed by 50kt gust at 0805 UTC on 13/1/10 at Gunnedah airport AWS. Thunderstorm with damaging winds at Gunnedah on 13/1/10.,,,
5624,17/01/2010 4:38,-31.7651,150.8345,MURRURUNDI,NSW,48,48 knot gust recorded at Murrurundi AWS at 0438 UTC on 17/1/10. Thunderstorm with damaging wind in the Murrurundi/Scone area on 17/1/10.,,,
5625,17/01/2010 4:57,-32.0484,150.8678,SCONE,NSW,50,50 knot gust recorded at Scone AWS at 0457 UTC on 17/1/10. Thunderstorm with damaging wind in the Murrurundi/Scone area on 17/1/10.,,,
5626,17/01/2010 5:00,-29.6817,152.9345,GRAFTON,NSW,0,"SES reported trees down due to wind in the Grafton area, also strong winds with horizontal rain reported by a spotter at nearby Swan Creek. Thunderstorm with large hail and damaging winds in the Grafton area.",,,
5627,17/01/2010 3:00,-31.4651,152.7345,WAUCHOPE,NSW,0,SES reported trees down due to wind from a thunderstorm at Wauchope. Time estimated from radar as approximately 0300 UTC. Thunderstorm with damaging winds at Wauchope on 17/1/10.,,,
5628,27/01/2010 5:04,-28.8817,153.0511,CASINO AIRPORT,NSW,49,"49 knot wind gust reported from Casino airport AWS at 0504Z on 27/1/10. Supercell thunderstorm affected Whiporie, Casino, Lismore and surrounding areas on 27/1/10. Large hail, damaging winds and heavy rainfall were all reported from various locations.",,,
5629,27/01/2010 5:00,-28.8984,152.7178,MALLANGANEE,NSW,0,"Storm spotter reported power lines down in Mallanganee and Bonalbo areas on 27/1/10. Time estimated as 05Z from radar. Supercell thunderstorm affected Whiporie, Casino, Lismore and surrounding areas on 27/1/10. Large hail, damaging winds and heavy rainfall were all reported from various locations.",,,
5630,27/01/2010 5:20,-28.7817,153.1678,FERNSIDE,NSW,59,"Storm spotter reported winds around 100-110 km/h (estimated) at Fernside (10km west of Lismore) on 27/1/10. Time estimated as 0520Z from radar. Supercell thunderstorm affected Whiporie, Casino, Lismore and surrounding areas on 27/1/10. Large hail, damaging winds and heavy rainfall were all reported from various locations.",,,
5631,27/01/2010 5:00,-28.8484,153.0511,CASINO,NSW,0,"Northern Star newspaper reported roofs and walls blown off houses and about 100 trees down (including giant hardwood ironbarks)in the north Casino area and and a power outage between Casino and Kyogle from storm on the afternoon of 27/1/10. Supercell thunderstorm affected Whiporie, Casino, Lismore and surrounding areas on 27/1/10. Large hail, damaging winds and heavy rainfall were all reported from various locations.",,,
5632,27/01/2010 4:55,-33.2817,149.1012,ORANGE,NSW,0,"Weatherzone poster reported thunderstorm at Orange with trees down, flash flooding in creeks and some hail (unspecified size) in 20 minutes before 4:15pm on 27/1/10. Severe thunderstorm with damaging wind and heavy rain at Orange on 27/1/10.",,,
5633,28/06/2010 9:14,-32.7817,151.3345,CESSNOCK AERODROME,NSW,49,"49 knot wind gust recorded at Cessnock airport AWS at 0914 UTC on 29/1/10. Severe thunderstorm, most likely a supercell, brought large hail to the lower Blue Mountains before causing a strong wind gust at Cessnock several hours later on 28/1/10.",,,
5634,28/06/2010 7:30,-31.2317,151.0178,LOOMBERAH,NSW,40,"Winds from a storm at Loomberah at 6:30pm (local) on 28/1/10 estimated at 75km/h (below severe threshold) but results suggested higher peak speed at least somewhere nearby - BBQ, table and chairs in garden blown over and also caused a power outage. Thunderstorm with severe winds and large hail at Loomberah east of Tamworth on 28/1/10.",,,
5635,31/01/2010 8:48,-32.2067,148.5762,DUBBO AIRPORT,NSW,55,55 knot wind gust recorded at Dubbo airport AWS at 0848 UTC on 31/1/10. Thunderstorm with damaging wind gust at Dubbo on 31/1/10.,,,
5636,10/02/2010 5:10,-36.1651,149.3346,NUMERALLA,NSW,54,Storm spotter reported 2nd hand a friend at Numeralla saw trees down and estimated 100 km/h winds in a thunderstorm on 10/2/10. Time estimated to be about 0510 UTC from radar. Thunderstorm with damaging winds at Numeralla east of Cooma on 10/2/10.,,,
5638,12/02/2010 5:00,-34.6651,150.8512,KIAMA,NSW,56,56 knot wind gust recorded at Kiama AWS at 0500 UTC on 12/2/10. Severe thunderstorm with damaging winds at Kiama and Gerringong on 12/2/10.,,,
5640,12/02/2010 5:00,-34.7484,150.8346,GERRINGONG,NSW,0,SES reported some jobs for wind damage from storm at Gerringong near Kiama about 0500 UTC. Severe thunderstorm with damaging winds at Kiama and Gerringong on 12/2/10.,,,
5643,12/02/2010 4:30,-33.8651,150.9512,FAIRFIELD,NSW,0,SES reported about 50 jobs for wind damage from storm at Fairfield about 0430 UTC (time estimated from radar). Severe thunderstorm with damaging winds at Fairfield on 12/2/10.,,,
5644,12/02/2010 5:00,-33.1317,148.1679,PARKES,NSW,0,"Weatherzone forum post reported trees down to the north of Parkes, seemingly from damaging wind. Time uncertain, estimated to be roughly 0500 UTC. Severe thunderstorm with damaging winds and flash flooding in the Parkes area on 12/2/10.",,,
5645,23/02/2010 4:15,-30.3151,149.5678,CULGOORA,NSW,51,"95km/h wind gust measured at Australia Telescope, Culgoora (west of Narrabri) in storm which began about 3:15pm local time on 23/2/10.  Thunderstorm with damaging wind and heavy rain west of Narrabri at about 3:30pm local time on 23/2/10.",,,
5646,23/02/2010 7:30,-30.9651,151.3511,WOOLBROOK,NSW,54,Storm spotter reported trees blown down by strong winds in a storm lasting 30 minutes starting about 6:30pm local time at Wllobrook on 23/2/10. Spotter claims to have estimated the strongest wind speed at 103 km/h. Rounded it to 100 km/h (54 knots). Thunderstorm with trees blown down and local flooding at Woolbrook on 23/2/10,,,
5647,26/02/2010 6:01,-30.8485,143.0846,WHITE CLIFFS,NSW,52,52 knot gust recorded at White Cliffs at 0601 UTC on 26/2/10. Thunderstorm with damaging wind gust at White Cliffs on 26/2/10.,,,
5648,26/02/2010 7:45,-30.8485,143.0846,WHITE CLIFFS,NSW,55,55 knot gust recorded at White Cliffs at 0745 UTC on 26/2/10. Second thunderstorm with damaging wind gust at White Cliffs on 26/2/10.,,,
5649,2/06/2010 22:45,-28.6317,153.6345,CAPE BYRON,NSW,48,"48 knot wind gust from supercell thunderstorm recorded at Cape Byron AWS at 2245 UTC on 2/6/10 (morning of 3/6/10 local time). Supercell thunderstorm and associated tornado developed near Lennox Head early on the morning of 3/6/10, storm tracked north to Byron bay then turned offshore.",,,
5884,28/02/2011 8:15,-31.9652,141.4513,BROKEN HILL,NSW,40,Erratic winds from WNW-SE NULL,,,
5885,28/02/2011 8:15,-31.9652,141.4513,BROKEN HILL,NSW,40,Erratic winds from WNW-SE NULL,,,
5887,10/09/2010 4:00,-34.5651,150.7846,ALBION PARK AERODROME,NSW,52,LG:Greater Wollongong NULL,,,
5888,27/09/2010 3:27,-30.9651,148.3679,COONAMBLE AIRPORT,NSW,52,NULL NULL,,,
5889,30/10/2010 8:13,-34.7485,146.5512,NARRANDERA,NSW,52,NULL NULL,,,
5895,10/11/2010 5:39,-31.7651,150.8345,MURRURUNDI,NSW,52,NULL NULL,,,
5904,3/12/2010 4:40,-35.6318,145.8013,Berrigan,NSW,0,Wind damage to trees.  Visually looks like severe crop damage. NULL,,,
5905,1/12/2010 2:30,-31.5317,146.7012,HERMIDALE,NSW,0,2nd hand report to Cobar observer of Silo knocked down in Hermidale (between Cobar and Nyngan) as well as hay bales on a truck ripped off. NULL,,,
5906,8/12/2010 7:34,-35.1318,147.4179,WAGGA WAGGA AERODROME,NSW,52,NULL NULL,,,
5907,9/12/2010 2:08,-33.3817,149.1346,ORANGE AIPORT,NSW,33,NULL NULL,,,
5923,13/12/2010 7:23,-28.8817,152.5678,TABULAM,NSW,0,"Spotter is former Bureau staff member. ""Trees about 40cm in diameter snapped with limbs down all over the place."" NULL",,,
5924,15/12/2010 9:52,-36.2517,150.2265,MONTAGUE ISLAND,NSW,49,4 minute wind averaging period. NULL,,,
5925,15/12/2010 10:00,-36.2517,150.2265,MONTAGUE ISLAND,NSW,54,10 minute wind averaging period. NULL,,,
5926,16/12/2010 10:57,-30.9484,150.2511,GUNNEDAH AERODROME,NSW,49,7 minute wind averaging period. NULL,,,
5927,5/01/2011 8:10,-35.4317,149.1512,TUGGERANONG,NSW,0,LGA: ACT Roof lost in Tuggeranong.  Tuggeranong AWS doesn't record any significant wind gusts.  Highest wind gust recorded 19 knots.  NULL,,,
5928,19/01/2011 7:20,-29.6484,152.8011,RAMORNIE,NSW,0,Roaring wind with debris being flung against the side of the house associated with small tornado(s) momentarily touching down.  Roof damage - now leaking. NULL,,,
5933,2/02/2011 5:51,-34.7484,149.7346,GOULBURN,NSW,50,NULL NULL,,,
5934,4/02/2011 6:53,-36.2517,150.2265,MONTAGUE ISLAND,NSW,52,Wind averaging period was less than 10 minutes. NULL,,,
5935,4/02/2011 6:55,-36.2517,150.2265,MONTAGUE ISLAND,NSW,55,Wind averaging period was less than 10 minutes. NULL,,,
5955,27/02/2011 5:25,-30.6415,152.9906,NAMBUCCA HEADS,NSW,0,"Spotter reports ""damaging wind"". NULL",,,
5956,1/03/2011 2:51,-32.0484,150.8678,SCONE,NSW,48,48kt gust.  Wind Averaging Period less than 10m. NULL,,,
5957,1/03/2011 4:01,-31.7651,150.8345,MURRURUNDI,NSW,51,NULL NULL,,,
5958,1/03/2011 4:22,-30.0317,148.1012,WALGETT AIRPORT,NSW,53,Walgett AWS.  Wind averaging period less than 10 minutes. NULL,,,
5959,1/03/2011 4:23,-30.0317,148.1012,WALGETT AIRPORT,NSW,57,Walgett AWS.  Wind averaging period less than 10 minutes. NULL,,,
5960,1/03/2011 4:50,-32.9184,151.7981,NOBBYS HEAD,NSW,49,LGA: Greater Newcastle NEWCASTLE NOBBYS SIGNAL STATION AWS.  Wind averaging period less than 10 minutes.  NULL,,,
5961,1/03/2011 4:50,-30.9484,150.2511,GUNNEDAH AERODROME,NSW,57,"Sev Wx logbook has 57kt gust recorded at Gunnedah, but AWS only shows 46kt gust.  Couldn't find 57kt in 3pm Synops either.  So treat this obs with caution. NULL",,,
5962,1/03/2011 4:55,-32.9184,151.7981,NOBBYS HEAD,NSW,52,LGA: Greater Newcastle NEWCASTLE NOBBYS SIGNAL STN AWS.  Wind averaging period less than 10 minutes.  NULL,,,
5963,1/03/2011 8:25,-30.3151,153.1178,COFFS HARBOUR AIRPORT,NSW,53,Coffs Harbour AWS.  Wind averaging period less than 10 minutes. NULL,,,
5964,1/03/2011 4:50,-32.7317,151.8511,MEDOWIE,NSW,0,LGA: Greater Newcastle Storm spotter reports considerable damage in Medowie.  Calls on the 2nd to report for the 1st of March.  One house with significant roof damage and two others with minor damage to house.  Lots of trees down with branches 0.6m in diameter.  Can see evidence of storm track from Raymond Terrace to Medowie to Nelson Bay.  NULL,,,
5966,30/03/2011 2:59,-34.0484,150.6846,CAMDEN,NSW,48,LGA: Metropolitan  Camden AWS.  Wind averaging period less than 10 minutes.  NULL,,,
5971,30/03/2011 4:15,-32.2067,148.5762,DUBBO AIRPORT,NSW,53,Dubbo AWS.  Wind Averaging Period less than 10 minutes. NULL,,,
6113,14/11/2011 0:00,0,0,,NSW,0,24-07-1862. A perfect hurricane occurred soon after 6pm and lasted for more than half an hour. The wind came from the west and southwest. Several houses were stripped of a good many of their shingles. A man on one of the ships in the Bay was swept over board and drowned. The wind caused a great deal of damage to storekeepers. 24-07-1862. A perfect hurricane occurred soon after 6pm and lasted for more than half an hour. The wind came from the west and southwest. Several houses were stripped of a good many of their shingles. A man on one of the ships in the Bay was swept over board and drowned. The wind caused a great deal of damage to storekeepers.,,,
6520,28/09/2011 9:46,-31.0818,141.718,FOWLERS GAP,NSW,52,NULL NULL,,,
6521,1/10/2011 5:41,-28.8484,153.0511,CASINO,NSW,46,Report close enough to the 47 knots threshold. NULL,,,
6522,14/10/2011 11:45,-31.0818,141.718,FOWLERS GAP,NSW,50,NULL NULL,,,
6523,25/10/2011 4:13,-30.0317,148.1012,WALGETT,NSW,50,NULL NULL,,,
6524,25/10/2011 7:10,-30.9484,150.2511,GUNNEDAH AERODROME,NSW,46,Close to the 47 knots threshold and the same environment produced gusts >50 knots in the area. NULL,,,
6525,8/11/2011 3:07,-34.7484,149.7346,GOULBURN,NSW,49,NULL NULL,,,
6526,8/11/2011 6:32,-29.4152,142.0346,TIBOOBURRA,NSW,53,NULL NULL,,,
6527,9/11/2011 8:09,-32.0068,141.468,BROKEN HILL AIRPORT,NSW,50,SES reported wind damage-related jobs at Broken Hill also. NULL,,,
6528,12/11/2011 10:23,-29.6817,152.9345,GRAFTON,NSW,49,NULL NULL,,,
6529,12/11/2011 10:23,-29.6817,152.9345,GRAFTON,NSW,49,NULL NULL,,,
6530,13/11/2011 7:55,-28.6151,153.0011,KYOGLE,NSW,48,Storm spotter rang Queensland RFC reporting an approximately 90km/hr wind gust at Kyogle. QLD RFC passed on the report to NSW RFC. NULL,,,
6531,29/11/2011 9:27,-33.9317,147.1846,WEST WYALONG AIRPORT,NSW,72,Report was a SPECI from YWWL AWS. A pre-frontal feature moved across central parts of NSW resulting in several observed damaging-destructive wind gusts at several locations.,,,
6532,29/11/2011 9:36,-35.1318,147.4179,WAGGA WAGGA AIRPORT,NSW,50,Report was a SPECI from YSWG AWS. A pre-frontal feature moved across central parts of NSW resulting in several observed damaging-destructive wind gusts at several locations.,,,
6533,29/11/2011 11:36,-33.0651,147.2012,CONDOBOLIN AERODROME,NSW,55,Report was a SPECI from YCDO AWS. A pre-frontal feature moved across central parts of NSW resulting in several observed damaging-destructive wind gusts at several locations.,,,
6534,29/11/2011 11:27,-33.0651,147.2012,CONDOBOLIN AERODROME,NSW,49,Report was a SPECI from YCDO AWS. A pre-frontal feature moved across central parts of NSW resulting in several observed damaging-destructive wind gusts at several locations.,,,
6535,29/11/2011 12:28,-33.3817,148.0012,FORBES,NSW,62,Report was a SPECI from YFBS AWS. A pre-frontal feature moved across central parts of NSW resulting in several observed damaging-destructive wind gusts at several locations.,,,
6536,29/11/2011 5:30,-35.1318,147.4179,WAGGA WAGGA AIRPORT,NSW,48,NULL NULL,,,
6537,29/11/2011 9:00,-35.2818,147.0846,THE ROCK HILL,NSW,53,Heavy items such as 44 gallon drums were moved around the yard. A pre-frontal feature moved across central parts of NSW resulting in several observed damaging-destructive wind gusts at several locations.,,,
6562,29/11/2011 5:30,-35.1152,147.3679,WAGGA WAGGA,NSW,0,Estimated report of wind speed with an event that also had a report of 50mm in 4 hours near Wagga Wagga NULL,,,
6563,25/12/2011 11:25,-31.0818,141.718,FOWLERS GAP,NSW,49,NULL NULL,,,
6564,8/01/2012 7:52,-31.2651,149.2679,COONABARABRAN,NSW,56,radar velocity approximated as 50kt for around this time. NULL,,,
6565,27/01/2012 1:29,-32.0068,141.468,BROKEN HILL AIRPORT,NSW,52,NULL NULL,,,
6566,12/02/2012 10:20,-30.3151,153.1345,COFFS HARBOUR,NSW,53,Also recorded some rain amounts for this event NULL,,,
6567,20/02/2012 5:25,-31.0817,150.9345,TAMWORTH,NSW,49,Observed by forecaster on alerts. Gale mean wind speed and storm force gust recorded.,,,
6568,29/11/2011 9:00,-34.8651,150.5846,NORTH NOWRA,NSW,98,reported via spotter email NULL,,,
6835,23/08/2012 7:18,-30.3317,149.7678,NARRABRI,NSW,48,Wind averaging period of 2mins NULL,,,
6836,23/08/2012 6:03,-33.6151,150.2679,MOUNT BOYCE,NSW,49,LGA:Blue Mtns/Hawkesbury%D Wind averaging period of 3 minutes. NULL,,,
6837,30/10/2012 5:07,-29.7484,153.0345,GRAFTON AIRPORT,NSW,53,Wind Averaging period of 2mins. NULL,,,
6838,8/11/2012 5:15,-33.7484,150.7012,PENRITH,NSW,58,LGA:Sydney%D Wind Averaging period of 2mins. NULL,,,
6839,27/11/2012 5:07,-34.3984,150.0846,BOURKE,NSW,56,Wind averaging period of 2min. NULL,,,
6840,27/11/2012 4:21,-33.9317,147.2012,WEST WYALONG,NSW,49,Wind averaging period of 2mins. NULL,,,
6841,27/11/2012 4:35,-34.4651,147.5346,TEMORA,NSW,55,Wind averaging period of 2mins. NULL,,,
6842,27/11/2012 5:26,-34.2984,148.3012,YOUNG,NSW,48,Wind averaging period of 7mins. NULL,,,
6843,27/11/2012 9:19,-32.0317,150.8845,SCONE,NSW,53,Wind averaging period of 2mins. NULL,,,
6844,1/12/2012 15:11,-32.1317,150.3511,MERRIWA,NSW,52,Aileen Hogan also sent in a storm spotter report via email giving qualitative description of wind damage at about 2am local time on the morning of 2/12/2012. NULL,,,
6845,3/12/2012 3:58,-31.0817,150.8511,TAMWORTH AIRPORT,NSW,50,Wind averaging period of 2min. NULL,,,
6846,19/12/2012 10:35,-29.4651,149.8345,MOREE,NSW,49,NULL NULL,,,
6847,23/12/2012 7:50,-33.4315,148.0137,FORBES,NSW,52,Wind averaging period of 2mins. NULL,,,
6848,23/12/2012 9:43,-34.4151,147.5179,TEMORA AERODROME,NSW,56,Wind averaging period of 2 min. NULL,,,
6849,24/12/2012 6:03,-36.253,148.1804,KHANCOBAN,NSW,60,Wind averaging period 3 min. NULL,,,
6850,24/12/2012 7:25,-33.4315,148.0137,FORBES,NSW,48,Wind averaging period 2 mins. NULL,,,
6851,24/12/2012 7:50,-35.4484,149.8012,BRAIDWOOD,NSW,49,Wind averaging period 2 mins. NULL,,,
6852,24/12/2012 7:56,-36.2517,150.2268,MONTAGUE ISLAND LIGHTHOUSE,NSW,56,Wind averaging period 2 mins. NULL,,,
6853,25/12/2012 8:42,-29.4817,149.8345,MOREE AIRPORT,NSW,51,Wind avergaing period 2 min. NULL,,,
6854,25/12/2012 5:11,-31.8151,150.7345,MURRURUNDI,NSW,52,Wind averaging period 2mins. NULL,,,
6855,13/01/2013 8:36,-30.5317,151.6178,ARMIDALE AIRPORT,NSW,52,Wind averaging period 3 mins. NULL,,,
6856,13/01/2013 7:00,-31.0817,150.8511,TAMWORTH AIRPORT,NSW,68,Wind averaging period 2 mins. NULL,,,
6857,13/01/2013 7:16,-30.3484,149.7678,NARRABRI WEST,NSW,69,NULL NULL,,,
6858,18/01/2013 6:00,-33.6817,151.2262,TERREY HILLS,NSW,56,Wind averaging period 2 min. NULL,,,
6859,21/01/2013 7:30,-34.7318,146.5012,NARRANDERA,NSW,50,NULL NULL,,,
6860,1/02/2013 5:13,-31.8151,150.7345,MURRURUNDI,NSW,55,NULL NULL,,,
6861,1/02/2013 3:56,0,0,Oakdale,NSW,49,LGA: Wollondilly/Wingecarribee NULL,,,
6862,1/02/2013 7:43,-30.5317,151.6178,ARMIDALE AIRPORT,NSW,50,NULL NULL,,,
6863,1/02/2013 9:35,-30.8817,153.0345,SOUTH WEST ROCKS,NSW,49,NULL NULL,,,
6864,24/03/2013 6:04,-29.1151,153.4345,EVANS HEAD,NSW,49,NULL NULL,,,
6867,11/06/2013 5:37,-31.0867,141.7017,Fowlers Gap,NSW,48,Wind averaging period of 6mins. NULL,,,
6870,24/12/2012 7:30,-33.8151,148.6846,COWRA,NSW,0,"Tree damage to house at Cowra.  Driving from Cowra to Young noticed ""tree damage was almost total for a small distance"".  ""A number of dead birds on the ground apparently dashed to the ground by very intense winds."" NULL",,,
7041,3/10/2013 3:35,-32.7396,151.7786,Raymond Terrace,NSW,50,SES reported a large tree down and a partial roof of a house in the Ferodale area. Wind gust strength estimated from description of damage. NULL,,,
7042,21/10/2013 8:06,-33.068,147.213,Condobolin,NSW,56,NULL NULL,,,
7043,21/10/2013 8:11,-31.539,145.796,Cobar,NSW,58,NULL NULL,,,
7044,29/10/2013 0:22,-31.741,150.794,Murrurundi,NSW,57,NULL NULL,,,
7045,29/10/2013 3:05,-31.741,150.794,Murrurundi,NSW,60,NULL NULL,,,
7047,16/11/2013 8:06,-28.6387,153.6361,CAPE BYRON,NSW,0,NULL NULL,,,
7048,21/11/2013 7:41,-35.3167,149.2,CANBERRA AIRPORT,NSW,50,LGA:ACT %D Rainfall of 21mm recorded at Canberra Airport in the 10min to 07:46.  NULL,,,
7050,5/12/2013 2:25,-33.3817,149.1346,ORANGE AIPORT,NSW,49,NULL NULL,,,
7051,5/12/2013 5:38,-34.4151,147.5179,TEMORA AERODROME,NSW,51,NULL NULL,,,
7053,5/12/2013 7:03,-33.8317,148.6512,COWRA AIRPORT,NSW,48,NULL NULL,,,
7055,9/01/2014 5:01,-29.4152,142.0346,TIBOOBURRA,NSW,52,NULL NULL,,,
7056,9/01/2014 5:33,-30.8485,143.0846,WHITE CLIFFS,NSW,50,NULL NULL,,,
7057,17/01/2014 13:00,-35.5318,144.9347,DENILIQUIN,NSW,53,NULL NULL,,,
7073,15/03/2014 4:22,-30.8485,143.0846,WHITE CLIFFS,NSW,56,NULL 56 knot gust at White Cliffs,,,
7074,15/03/2014 6:37,-33.8484,151.2179,FORT DENISON,NSW,49,LGA: Sydney NULL,,,
7075,16/03/2014 1:33,-33.6817,151.2262,TERREY HILLS,NSW,48,LGA: Sydney NULL,,,
7076,16/03/2014 2:43,-31.8151,150.7345,MURRURUNDI,NSW,56,NULL NULL,,,
7079,16/03/2014 4:00,-29.7317,151.7511,GLEN INNES,NSW,50,NULL NULL,,,
7080,16/03/2014 4:07,-32.8067,151.8678,WILLIAMTOWN,NSW,51,LGA: Greater Newcastle NULL,,,
7081,16/03/2014 4:48,-30.9651,150.1511,GUNNEDAH,NSW,51,NULL NULL,,,
7082,16/03/2014 3:00,-31.0317,151.2178,DANGLEMAH,NSW,56,"Large branches down, trees snapped/uprooted.  NULL",,,
7083,16/03/2014 6:32,-28.8817,153.0511,CASINO AIRPORT,NSW,58,NULL NULL,,,
7084,22/03/2014 6:45,-34.0151,151.0012,LUCAS HEIGHTS,NSW,48,LGA: Sydney NULL,,,
7091,16/03/2014 3:15,-31.9484,152.4178,TINONEE,NSW,0,"Report of many large trees were blown over. Several uprooted and others snapped the trunk just above ground level. Spotter estimated wind gust of at least 100 miles per hour (87 knots, but this seems over-exagerrated). NULL",,,
7092,13/10/2013 13:00,-32.9651,151.6845,CHARLESTOWN,NSW,53,"Storm spotter Kyle Valentine reported tree branches snapped, shade cloth torn, colorbond fence warped in wind. Thunder and lightning observed also.%D NULL",,,
7093,29/10/2013 4:30,-31.0817,152.8345,KEMPSEY,NSW,48,"Storm spotter Paul Buckman reported tree branches snapped, roofing tiles lifted, and structural damage to BP Clybucca Service Station, estimating max wind gusts of 90km/h. Also reported about 30mm in about 15 mins (rainfall rate just below 1 in 10 year event based on Kempsey IFD), with gutters and creeks overflowing and a total whiteout at BP Clybucca service station. NULL",,,
7094,16/03/2014 2:49,-32.0317,150.8845,SCONE,NSW,49,YSCO AWS NULL,,,
7095,16/03/2014 3:03,-31.8151,150.7345,MURRURUNDI,NSW,59,MUI AWS NULL,,,
7096,16/03/2014 6:32,-29.1151,153.4345,EVANS HEAD,NSW,62,EVHD AWS NULL,,,
7097,3/04/2014 8:32,-34.2984,150.5846,BARGO,NSW,0,LGA: Wollondilly/Wingecarribee. Bargo Hotel had roof blown off. Possible low-end tornado. NULL,,,
7098,27/05/2014 7:23,-35.1318,147.4179,WAGGA WAGGA AERODROME,NSW,49,YSWG AWS NULL,,,
7185,4/10/2014 5:22,-29.4817,149.8345,MOREE AIRPORT,NSW,48,NULL 48 knot gust with thunderstorm at Moree.,,,
7186,13/10/2014 6:00,-33.7734,150.6346,LAPSTONE,NSW,0,"Spotter reports that wind blew down some small and large tree branches. %D LGA: Blue Mountains City Council Line of thunderstorms produced a 49 knot wind gust at Nobbys Head, and reports of wind damage at Lapston (just W of Metro).",,,
7187,13/10/2014 8:31,-32.9234,151.8011,NOBBYS HEAD,NSW,49,"LGA: Newcastle Line of thunderstorms produced a 49 knot wind gust at Nobbys Head, and reports of wind damage at Lapston (just W of Metro).",,,
7188,14/10/2014 9:52,-34.0151,151.2012,KURNELL,NSW,62,"LGA: Sutherland Shire An East Coast Low produced thunderstorms over the Sydney Metropolitan area that caused heavy rainfall, flash flooding as well as damaging/destructive wind gusts.",,,
7189,14/10/2014 10:00,-34.7234,150.6429,WATTAMOLLA,NSW,87,"LGA: Shoalhaven City Council An East Coast Low produced thunderstorms over the Sydney Metropolitan area that caused heavy rainfall, flash flooding as well as damaging/destructive wind gusts.",,,
7190,14/10/2014 11:30,-33.7817,151.2846,FRESHWATER BEACH,NSW,48,"Spotter estimate of wind gust strength. Spotter also reports damage with tree branches snapped, shade cloth torn and power lines down. %D LGA: Warringah Council An East Coast Low produced thunderstorms over the Sydney Metropolitan area that caused heavy rainfall, flash flooding as well as damaging/destructive wind gusts.",,,
7191,31/10/2014 7:43,-30.9651,148.3679,COONAMBLE AIRPORT,NSW,48,NULL Thunderstorm cell produced a 48 knot gust at Coonamble.,,,
7192,31/10/2014 10:28,-31.7651,150.8345,MURRURUNDI,NSW,64,NULL A thunderstorm cell produced a 64 knot gust at Murrurundi and a 50 knot gust at Merriwa.,,,
7193,31/10/2014 10:24,-32.122,150.3303,MERRIWA,NSW,50,NULL A thunderstorm cell produced a 64 knot gust at Murrurundi and a 50 knot gust at Merriwa.,,,
7194,1/11/2014 3:26,-33.9817,150.9846,HOLSWORTHY,NSW,49,SES reports wind jobs through Sutherland as well (most likely associated with this cell). %D LGA: Campbelltown City / Liverpool City A high-based thunderstorm cell produced a 49 knot gust at Holsworthy.,,,
7195,1/11/2014 4:32,-33.7484,150.7512,PENRITH,NSW,50,"Extensive wind damage across Penrith (and western Sydney) reported by the media with this cell. Including: trees blown over, parts of roofs blown off. Kingswood Medical Centre had roof blown off. %D LGA: Penrith City Council A high-based thunderstorm cell in the Metropolitan produced a 50 knot gust at Penrith and a 57 knot gust at Sydney Harbour.",,,
7196,1/11/2014 5:09,-33.8484,151.2512,SYDNEY HARBOUR,NSW,57,"Wind damage reported by the media about the Harbour, including boats blown over on the water. %D LGA: Council of the City of Sydney A high-based thunderstorm cell in the Metropolitan produced a 50 knot gust at Penrith and a 57 knot gust at Sydney Harbour.",,,
7197,1/11/2014 5:43,-32.7984,151.8428,WILLIAMTOWN AERODROME,NSW,50,LGA: Port Stephens Council A high-based thunderstorm cell produced a 50 knot wind gust at Williamtown. Lightning from this cell also struck and killed a 15 year old boy surfing at One Mile Beach.,,,
7198,1/11/2014 4:56,-31.7651,150.8345,MURRURUNDI,NSW,51,NULL A high-based thunderstorm cell produced a 52 knot wind gust at Murrurundi.,,,
7199,5/11/2014 2:49,-34.5484,150.3679,MOSS VALE,NSW,57,NULL Thunderstorm cell produced 57 knot wind gust at Moss Vale.%D Synoptic: low pressure trough moving across the state produced multiple severe thunderstorm cells (events) across central and NE NSW.,,,
7200,5/11/2014 6:35,-30.9484,150.2511,GUNNEDAH AERODROME,NSW,57,"NULL A thunderstorm cell produced a 57 knot gust at Gunnedah, and a 59 knot gust at Tamworth. Synoptic: low pressure trough moving across the state produced multiple severe thunderstorm cells (events) across central and NE NSW.",,,
7201,5/11/2014 6:54,-31.0817,150.8511,TAMWORTH AIRPORT,NSW,59,"SES reports multiple jobs in Tamworth area, mainly associated with trees down. A thunderstorm cell produced a 57 knot gust at Gunnedah, and a 59 knot gust at Tamworth. Synoptic: low pressure trough moving across the state produced multiple severe thunderstorm cells (events) across central and NE NSW.",,,
7202,5/11/2014 8:31,-30.5317,151.6178,ARMIDALE AIRPORT,NSW,51,"SES reports multiple jobs in Armidale area, mainly associated with trees down. A thunderstorm cell produced a 51 knot wind gust at Armidale. Synoptic: low pressure trough moving across the state produced multiple severe thunderstorm cells (events) across central and NE NSW.",,,
7203,14/11/2014 8:02,-31.4985,143.368,WILCANNIA AERODROME,NSW,49,NULL A thunderstorm produced a 48 knot wind gust at Wilcannia.,,,
7204,14/11/2014 8:53,-29.4152,142.0346,TIBOOBURRA,NSW,62,NULL A thunderstorm produced a 62 knot wind gust at Tibooburra.,,,
7205,23/11/2014 5:19,-34.8151,149.7179,GOULBURN AIRPORT,NSW,49,NULL A thunderstorm produced a 49 knot gust at Goulburn.,,,
7206,23/11/2014 6:37,-34.8151,149.7179,GOULBURN AIRPORT,NSW,50,NULL A thunderstorm produced a 50 knot wind gust a Goulburn.,,,
7207,24/11/2014 4:15,-33.6651,150.6846,CASTLEREAGH,NSW,0,SES reports a roof blown off with a thunderstorm at Castlereagh (Western Sydney). %D LGA: Penrith City Council Wind damage reported form thunderstorms in western Sydney,,,
7208,24/11/2014 4:15,-33.7179,150.7846,WILLMOT,NSW,0,Spotter reports trees blown over with gusts from a thunderstorm at Willmot. %D LGA: Penrith City Council Wind damage reported form thunderstorms in western Sydney,,,
7209,24/11/2014 5:54,-32.7984,151.8428,WILLIAMTOWN AERODROME,NSW,53,SES reports a Jetstar hangar at Newcastle airport (Williamtown) is threatening to collapse following wind damage from a thunderstorm. %D LGA: Port Stephens Council A 53 knot gust recorded with a thunderstorm at Williamtown.,,,
7210,24/11/2014 7:01,-34.5318,144.818,HAY AIRPORT,NSW,49,NULL 49 knot gust recorded with a thunderstorm at Hay.,,,
7211,24/11/2014 7:17,-31.0817,150.8511,TAMWORTH AIRPORT,NSW,50,NULL 50 knot wind gust recorded with a thunderstorm at Tamworth.,,,
7212,30/11/2014 2:50,-33.7984,151.0512,THE PONDS CREEK,NSW,0,Roof ripped off with a thunderstorm. %D LGA: Blacktown City Council Roof damage (roof ripped off) reported from The Ponds area with a thunderstorm.,,,
7213,3/12/2014 3:30,-34.8151,149.7179,GOULBURN AIRPORT,NSW,48,NULL 48 knot gust recorded at Goulburn with a thunderstorm.,,,
7223,7/12/2014 1:40,-34.0484,150.6846,CAMDEN,NSW,48,LGA: Camden NULL,,,
7225,7/12/2014 2:10,-32.5484,149.6012,MUDGEE AIRPORT,NSW,55,NULL NULL,,,
7254,11/12/2014 3:39,-30.5317,151.6178,ARMIDALE AIRPORT,NSW,55,NULL 55 knot gust with a thunderstorm at Armidale airport.,,,
7255,16/12/2014 4:30,-30.9651,148.3679,COONAMBLE AIRPORT,NSW,53,NULL 53 knot gust with a thunderstorm at Coonamble,,,
7256,16/12/2014 6:55,-31.7651,150.8345,MURRURUNDI,NSW,70,"NULL 70 knot gust at Murrurundi with a thunderstorm, 51 knot gust at Scone.",,,
7257,16/12/2014 6:54,-32.0484,150.8678,SCONE,NSW,51,"NULL 70 knot gust at Murrurundi with a thunderstorm, 51 knot gust at Scone.",,,
7258,7/12/2014 6:43,-31.8151,150.7345,MURRURUNDI,NSW,50,NULL 50 knot gust with thunderstorm at Murrurundi,,,
7259,18/12/2014 7:14,-30.3151,153.1178,COFFS HARBOUR AIRPORT,NSW,53,"NULL 53 knot gust with a thunderstorm at Coffs Harbour, then a 53 knot gust at Grafton Research Station.",,,
7260,18/12/2014 7:30,-29.7484,153.0345,GRAFTON AIRPORT,NSW,53,"Gust at Grafton Research Station AWS. 53 knot gust with a thunderstorm at Coffs Harbour, then a 53 knot gust at Grafton Research Station.",,,
7261,18/12/2014 8:30,-29.1151,153.4345,EVANS HEAD,NSW,50,"Spotter estimates 50 knot gust at Evans Head with a thunderstorm. 53 knot gust with a thunderstorm at Coffs Harbour, then a 53 knot gust at Grafton Research Station.",,,
7262,22/12/2014 5:54,-33.5984,150.7679,RICHMOND AERODROME,NSW,48,LGA: City of Hawkesbury 48 knot gust with a thunderstorm at Richmond,,,
7263,29/12/2014 5:53,-36.2517,150.2265,MONTAGUE ISLAND,NSW,49,NULL 49 knot gust at Montague Island with a thunderstorm.,,,
7264,29/12/2014 7:16,-34.4817,150.4179,BOWRAL,NSW,55,High Range AWS NW of Bowral. 55 knot gust at High Range AWS (Illawarra) with a thunderstorm.,,,
7265,20/01/2015 5:00,-30.9651,151.3511,WOOLBROOK,NSW,63,"Spotter estimate of wind gust strength. Spotter report of 50mm in 60 minutes with a thunderstorm, and estimated 117km/h wind gusts.",,,
7266,20/01/2015 10:45,-34.7485,146.5512,NARRANDERA,NSW,49,NULL 49 knot wind gust at Narrandera,,,
7280,24/01/2015 7:36,-30.0423,145.952,Burke Airport,NSW,49,NULL NULL,,,
7281,24/01/2015 4:00,-31.079,152.719,Sherwood,NSW,0,From the Macleay Argus (local newspaper): A POWERFUL willy-willy tore through Sherwood on Sunday afternoon," uprooting trees and bringing down powerlines."" Images of large trees blown over. See%D http://www.macleayargus.com.au/story/2842677/willy-willy-strikes-at-sherwood/%D YKMP AWS reported 47kt gust at 3:55UTC. NULL""",,
7282,25/01/2015 7:48,-28.8824,153.0618,Casino Airport,NSW,51,NULL NULL,,,
7283,26/05/2015 5:30,-30.7869,150.778,Manilla,NSW,0,Damage photos submitted via email. Inconclusive but potential tornado. At minimum can conclude TS was severe with gusts > 90km/h. NULL,,,
7284,27/01/2015 3:54,-29.4898,149.8471,Moree,NSW,54,NULL NULL,,,
7285,11/02/2015 0:00,-36,146.368,Corowa,NSW,0,"Thunderstorm(s) over Corowa area between about 7pm and 8:20pm produce damage with 16 jobs reported to the SES, and NSW Fire&Rescue coordinating response. Wind most likely cause with Yarrawonga PPI showing several gust fronts over the district (and also gusts of 44kt and 41kt reported at Albury and Deniliquinn AWSs respectively about 8:30pm). NULL",,,
7286,11/02/2015 10:15,-35.267,147.065,The Rock,NSW,53,Leigh Rainbird (storm spotter) reports 10 min avg wind speed 63 kmh. Max gust 98 km/h. Radar shows this was likely a gust front ahead of a thunderstorm squall line. NULL,,,
7287,14/02/2015 6:28,-33.0682,147.2133,Condobolin,NSW,51,51kt gust with thunderstorm at YCDO AWS. NULL,,,
7288,15/02/2015 7:55,-32.0012,141.4694,Broken Hill,NSW,54,54kt gust with thunderstorm at YBHI AWS NULL,,,
7289,26/05/2015 8:22,-34.2487,146.0695,Griffith,NSW,49,49kt gust with thunderstorm at YGTH NULL,,,
7290,25/02/2015 8:05,-30.9776,148.3798,Coonamble,NSW,59,Thunderstorm produces 59kt gust at YCNM AWS. NULL,,,
7291,26/02/2015 7:50,-31.6061,152.4669,Comboyne,NSW,0,"Storm spotter at Comboyne reports thunderstorm producing 3cm hail, 60mm in 60 min, trees down. NULL",,,
7292,26/02/2015 7:20,-32.2637,150.889,Muswellbrook,NSW,0,Weather Zone reports golf ball sized hail from thunderstorm at Muswellbrook. Local paper reports 50c piece sized hail. Weather Zone also reports wind damage (ripped veranda roof off a house). Radar shows cell was an anomalous left mover. NULL,,,
7293,1/03/2015 4:22,-34.0615,150.7735,Campbelltown,NSW,55,"Thunderstorm produces 20c piece sized hail at Camden, 55kt gust at Campbelltown AWS. NULL",,,
7294,1/03/2015 5:24,-33.6185,150.2741,Mount Boyce,NSW,51,Thunderstorm squall line produces 51kt gust at MTBO AWS NULL,,,
7295,1/03/2015 5:43,-32.5628,149.6149,Mudgee,NSW,51,Thunderstorm squall line produces 48kt gust at YMDG AWS NULL,,,
7296,1/03/2015 9:40,-31.9151,152.4559,Taree,NSW,0,Tree damage from thunderstorm reported by storm spotter. NULL,,,
7297,8/03/2015 4:12,-29.7583,153.0297,Grafton,NSW,61,Thunderstorm produces 61kt gust and 50mm in 30min at YGFN AWS. NULL,,,
7298,11/03/2015 3:01,-34.5253,150.4217,Moss Vale,NSW,53,LGA: Wingecarribee. Thunderstorm produces 53kt gust at MSV AWS. NULL,,,
7299,11/03/2015 7:26,-33.8969,150.7281,Badgerys Creek,NSW,44,"Thunderstorm produces 2-3cm hail in Bargo (Wollondilly LGA), 36kt 10min-mean wind at Badgerys Ck (LGA: City of Liverpool) and 39mm in 30 minutes at Guilford (LGA: City of Holroyd/Parramatta). NULL",,,
7300,12/03/2015 5:05,-32.0335,150.8264,Scone,NSW,190,Thunderstorm produces 51kt gust at YSCO. NULL,,,
7301,21/03/2015 6:08,-29.4898,149.8471,Moree AWS,NSW,51,NULL NULL,,,
7302,15/04/2015 6:02,-33.3627,147.9205,Forbes AWS,NSW,52,NULL NULL,,,
7303,25/04/2015 6:05,-36.2519,150.2275,Montague Island AWS,NSW,50,NULL NULL,,,
7351,12/10/2015 7:51,-30.9651,148.3679,COONAMBLE AIRPORT,NSW,55,55kt gust @ YCNM NULL,,,
7352,12/10/2015 7:14,-30.0317,148.1012,WALGETT AIRPORT,NSW,49,49kt gust @ YWLG NULL,,,
7353,21/10/2015 6:42,-32.2484,148.6012,DUBBO,NSW,48,48kt gust @ YSDU NULL,,,
7354,26/10/2015 3:13,-33.9842,151.2127,Molineaux Point,NSW,48,"48 kt gust at Molineaux Point, Port Botany NULL",,,
7355,26/10/2015 3:13,-34.0151,151.2012,KURNELL,NSW,51,51 kt gust at Kurnell NULL,,,
7356,26/10/2015 4:23,-30.0317,148.1012,WALGETT,NSW,54,54 knot gust Walgett (Within Warning Area) NULL,,,
7357,26/10/2015 5:00,-30.9817,150.2511,GUNNEDAH,NSW,50,50 knot gust Gunnedah (Within Warning Area) NULL,,,
7429,1/07/2013 16:16,-28.6317,153.6345,CAPE BYRON,NSW,51,95 km/hr wind gust recorded at Cape Byron at 2:16am (2/7) NULL,,,
7430,1/07/2013 4:06,-28.6317,153.6345,CAPE BYRON,NSW,51,95 km/hr wind gust recorded at Cape Byron at 2:06pm (1/7) NULL,,,
7468,23/08/2015 23:05,-30.0318,145.9512,BOURKE AIRPORT,NSW,48,Warning was Updated after this to include the Upper Western. NULL,,,
7473,1/11/2015 4:20,-30.8485,143.0846,White Cliffs,NSW,65,65kt gust @ YWHC. LGA: Central Darling Shire. NULL,,,
7474,2/11/2015 6:26,-32.9317,151.7845,Newcastle,NSW,55,55kt gust @ NBB. LGA: City of Newcastle. NULL,,,
7475,4/11/2015 5:37,-30.8522,143.0743,White Cliffs,NSW,60,60kt gust @ YWHC NULL,,,
7476,4/11/2016 7:33,-31.0863,141.7008,Fowlers Gap,NSW,65,NULL NULL,,,
7477,1/11/2015 3:31,-34.5412,144.8345,Hay,NSW,63,63kt gust @ YHAY NULL,,,
7480,4/11/2015 3:50,-32.0012,141.4694,Broken Hill,NSW,48,48kt gust @ YBHI NULL,,,
7481,4/11/2015 7:33,-31.0818,141.718,Fowlers Gap,NSW,65,65kt gust @ Fowlers Gap NULL,,,
7482,5/11/2015 5:15,-33.0651,147.1512,Condobolin,NSW,50,50kt gust @ YCDO NULL,,,
7483,29/11/2015 6:00,-28.8151,153.2845,Lismore,NSW,47,Channel 7 News Twitter feed reports structural collapse of the Lismore Base Hospital maternity ward following the severe storm. No fatalities were reported with all persons accounted for. Lismore Airport AWS recorded a 47kt gust at 4.04pm before being damaged to a degree where it could no longer report data. NULL,,,
7484,1/12/2015 5:58,-30.5437,151.62,Armidale,NSW,54,54kt gust @ YARM NULL,,,
7485,9/12/2015 9:05,-33.9067,151.0429,Bankstown,NSW,48,48kt gust @ YSBK. NULL,,,
7486,10/12/2015 6:30,-28.3317,153.3845,Murwillumbah,NSW,0,"SES reported wind damage from storms in Murwillumbah, including a number of trees down on roads, and an iron roof ripped off one property. No estimate on wind gust but radar shows a strong cell moving through the region close to the time of the report.%D NULL",,,
7487,9/12/2015 9:30,-32.9651,151.7011,Kahibah,NSW,48,"Storm spotter reports wind gusts exceeding 48kt, although no qualifying remarks to support estimate (i.e. no specific mention of damage in his comment section). Radar shows strong, possibly left moving supercell at time of report. Bankstown AP recorded a 48kt gust from a separate storm earlier in the day, so environment looks to be supportive of wind gusts.%D NULL",,,
7488,15/12/2015 22:15,-34.3651,150.9179,Bellambi,NSW,49,49kt gust @ Bellambi Point. This is the first severe observation of this event. NULL,,,
7495,15/12/2015 23:45,-33.9817,151.2012,Port Botany,NSW,77,77kt gust @ Port Botany. LGA: The City of Randwick. NULL,,,
7496,15/12/2015 23:50,-33.9817,151.2512,Little Bay,NSW,60,60kt gust @ Little Bay. LGA: City of Randwick. NULL,,,
7497,16/12/2015 2:02,-33.9817,151.2012,Port Botany,NSW,68,68kt gust @ Port Botany. This was produced by a second cell tracking along the coastal fringe in the early afternoon. LGA: City of Randwick. NULL,,,
7498,16/12/2015 2:00,-34.0151,151.2012,Kurnell,NSW,60,60kt gust @ Kurnell. LGA: Sutherland Shire. NULL,,,
7499,16/12/2015 2:03,-33.9484,151.2012,Botany,NSW,55,55kt gust @ Sydney Airport. LGA: City of Botany Bay. NULL,,,
7500,16/12/2015 4:42,-30.9317,148.3679,Coonamble,NSW,55,55kt gust @ YCNM from a line of thunderstorms. NULL,,,
7501,16/12/2015 8:20,-29.4651,149.8345,Moree,NSW,63,63kt gust @ YMOR from a line of thunderstorms. NULL,,,
7502,20/12/2015 6:22,-34.2818,146.0346,Griffith,NSW,50,50kt gust @ YGTH. NULL,,,
7503,20/12/2015 8:14,-35.1152,147.3679,Wagga Wagga,NSW,50,50kt gust @ YSWG. NULL,,,
7505,20/12/2015 12:45,-33.1317,148.1679,Parkes,NSW,51,51kt gust @ YPKS. NULL,,,
7512,13/01/2016 5:30,-34.108,141.9163,Wentworth,NSW,48,"Storm Spotter from Wentworth estimates wind gusts of 48kt from storms moving into his area around 4.30pm. This seems consistent with the radar data. He included some qualifying remarks: "" Some rooves and antennas damaged and blown down. Range hood at one shop dislodged."" This report is also consistent with wind gusts of 47kt observed at Mildura (20km to the SE) at 4.39pm. NULL",,,
7513,14/01/2016 3:15,-34.0567,150.6929,CAMDEN,NSW,52,52kt gust @ YSCN. LGA: Camden Council. NULL,,,
7514,14/01/2016 3:57,-33.9067,151.0429,BANKSTOWN,NSW,50,50kt gust @ YSBK. LGA: City of Bankstown. NULL,,,
7515,14/01/2016 4:07,-33.9067,151.0429,BANKSTOWN,NSW,53,53kt gust @ YSBK. LGA: City of Bankstown. NULL,,,
7516,14/01/2016 4:12,-33.9067,151.0429,BANKSTOWN,NSW,58,58kt gust @ YSBK. LGA: City of Bankstown. NULL,,,
7517,14/01/2016 4:18,-33.9484,151.2012,BOTANY,NSW,53,53kt gust @ Sydney Airport (YSSY) from a line of thunderstorms. LGA: City of Botany Bay. NULL,,,
7518,14/01/2016 4:20,-33.9484,151.2012,BOTANY,NSW,66,66kt gust @ Sydney Airport (YSSY) from a line of thunderstorms. LGA: City of Botany Bay. NULL,,,
7519,14/01/2016 4:19,-33.9817,151.2012,PORT BOTANY,NSW,55,55kt gust @ Port Botany from a line of thunderstorms. LGA: City of Randwick. NULL,,,
7520,14/01/2016 4:21,-33.9817,151.2012,PORT BOTANY,NSW,66,66kt gust @ Port Botany from a line of thunderstorms. LGA: City of Randwick. NULL,,,
7521,21/01/2016 4:40,-35.3333,149.1667,FYSHWICK,NSW,56,56kt gust @ YSCB from a thunderstorm moving from the NW. NULL,,,
7522,22/01/2016 11:22,-29.4152,142.0346,TIBOOBURRA,NSW,73,73kt gust @ YTIB. NULL,,,
7523,23/01/2016 2:50,-30.6483,152.8511,BOWRAVILLE,NSW,0,SES reports of a house in Bowraville with half its roof blown off following a line of storms passing through. Estimated time from radar ~1.50pm. Numerous trees were also reported to have fallen on roads in the area. NULL,,,
7524,14/01/2016 3:41,-33.8901,150.8846,BONNYRIGG,NSW,48,48kt gust reported at Bonnyrigg from a storm spotter (measured gust). Qualifying comments include tree branches which were snapped and a shade cloth which was torn. NULL,,,
7525,25/01/2016 5:00,-32.5817,149.5846,MUDGEE,NSW,52,52kt gust @ YMDG. NULL,,,
7526,28/01/2016 5:58,-33.8969,150.7281,BADGERYS CREEK,NSW,55,55kt gust @ Badgerys Creek from an isolated thunderstorm tracking across western Sydney. LGA: City of Liverpool. NULL,,,
7527,28/01/2016 23:14,-36.5063,148.3056,THREDBO,NSW,50,50kt gust @ Thredbo. NULL,,,
7528,29/01/2016 3:00,-34.0475,151.15,LUCAS HEIGHTS,NSW,49,49kt gust @ Lucas Heights from an approaching line of thunderstorms. LGA: Sutherland Shire. NULL,,,
7529,29/01/2016 5:48,-28.8484,153.0511,CASINO,NSW,51,51kt gust @ Casino. NULL,,,
7530,29/01/2016 5:52,-28.8484,153.0511,CASINO,NSW,53,53kt gust @ Casino. NULL,,,
7531,29/01/2016 2:30,-33.8484,150.9846,GUILDFORD,NSW,0,"Between 1 and 2pm an article video (SMH) shows storm damage in Sydney area, including: wall of building collapsed at Guildford damaging cars; very large gum tree uprooted in Blaxland (greater than 30m in length). NULL",,,
7532,29/01/2016 6:00,-28.9734,153.2595,CORAKI,NSW,0,"SES reports of significant roof damage to a number of properties in Ballina and Coraki, together with trees down on roads. Wind gust of 49kt recorded @ Casino about 20min earlier from same storm. NULL",,,
7533,30/01/2016 5:19,-36.8876,150.7404,BADGERYS CREEK,NSW,53,53kt gust @ Badgerys Creek from a large thunderstorm which also produce flash flooding at other locations in the Sydney Metropolitan. LGA: City of Liverpool. NULL,,,
7534,30/01/2016 6:16,-33.9817,151.2012,PORT BOTANY,NSW,58,58kt gust @ Port Botany (Molineux Point) from a large thunderstorm which also produce flash flooding and damaging wind gusts at other locations in the Sydney Metropolitan. LGA: City of Randwick. NULL,,,
7535,30/01/2016 5:45,-33.7151,151.2346,BELROSE,NSW,48,"Andrew Treloar reports storm damage on Forest Way at Belrose from the severe thunderstorm on Saturday afternoon 30/1/16. Based on his damage assessment, Andrew estimated wind gusts over 48kt. Supporting comments included: leaves shredded over a 1km strip"," branches snapped off and smallish trees fallen on a nature strip towards the western edge of the road."" Wind gusts over 48kt were also observed at other locations in Sydney on the same day. LGA: Warringah Council. NULL""",,
7536,30/01/2016 6:46,-33.9317,147.2012,WEST WYALONG,NSW,48,48kt gust @ YWWL. NULL,,,
7538,20/02/2016 5:34,-34.3651,150.3012,HIGH RANGE,NSW,72,72kt gust @ High Range from an isolated but highly organised supercell thunderstorm which tracked from the southern highlands into southwest Sydney. LGA: Wingecarribee. NULL,,,
7539,20/02/2016 6:30,-34.078,150.5708,THE OAKS,NSW,0,"An online 9 news article (21 Feb 2016) shows 5 light planes flipped over and destroyed at the Oaks Airfield (ICAO: YOAS), a private airfield located approximately 13km WSW of Camden Airport. This damage was caused by a supercell thunderstorm which moved through the area on Saturday 20 Feb around 5.30pm. SES reports also confirm this, and state other damage to properties in The Oaks area and a number of large trees uprooted. A persistent low level velocity couplet was visible on doppler radar with this storm as it tracked from the Southern Highlands near Moss Vale, before the weakening near Camden. A tornado event definitely seems possible, based on the nature of the damage, the observed gust of 72kt at High Range, the high level of organisation in the storm together with a low level velocity couplet. LGA: Wollondilly Shire. NULL",,,
7540,3/03/2016 5:41,-35.1152,147.3679,WAGGA WAGGA,NSW,50,50kt gust @ YSWG. NULL,,,
7541,11/03/2016 6:40,-32.1317,150.3511,MERRIWA,NSW,55,55kt gust @ Merriwa. NULL,,,
7542,12/03/2016 6:15,-34.6222,146.4326,YANCO,NSW,49,49kt gust @ YNC from a high based thunderstorm. NULL,,,
7543,18/03/2016 1:54,-33.3817,148.0012,FORBES,NSW,54,54kt gust @ YFBS from a high based thunderstorm. NULL,,,
7544,18/03/2016 5:49,-32.1317,150.3511,MERRIWA,NSW,54,54kt gust @ MERW from a line of thunderstorms. NULL,,,
7545,18/03/2016 2:05,-37.2617,150.0498,GREEN CAPE,NSW,55,55kt gust @ Green Cape. NULL,,,
7546,26/03/2016 4:40,-29.6687,152.9817,SWAN CREEK,NSW,0,Storm spotter reports large branches torn off trees in Swan Creek area from strong wind gusts associated with a thunderstorm squall line. The SES also reported 1 house had part of its roof ripped off in the same area. Strongest nearby gusts were 39kt @ Grafton Research Station (5km NW of damage report) around 3.32pm. NULL,,,
7547,10/04/2016 4:56,-30.0372,148.1223,WALGETT,NSW,59,59kt gust @ YWLG. NULL,,,
7548,29/04/2016 5:48,-31.4985,145.8346,COBAR,NSW,54,54kt gust @ Cobar from a line of high based thunderstorms. NULL,,,
7582,4/10/2016 5:30,-35.5294,148.7723,MT GININI,NSW,52,Associated with squall line. NULL,,,
7583,4/10/2016 5:29,-35.9486,148.44,CABRAMURRA,NSW,55,Associated with squall line. NULL,,,
7584,4/10/2016 6:43,-35.3075,149.1244,CANBERRA AIRPORT,NSW,52,Associated with squall line. NULL,,,
7585,4/10/2016 7:40,-34.7479,149.1277,GOULBURN,NSW,51,Associated with squall line. NULL,,,
7586,4/10/2016 8:20,-34.8833,150.6,NOWRA,NSW,57,Associated with squall line outflow. NULL,,,
7587,4/10/2016 8:33,-34.5506,150.3964,MOSS VALE,NSW,48,Associated with squall line outflow. NULL,,,
7588,4/10/2016 8:50,-34.4278,150.8931,ALBION PARK,NSW,58,Associated with squall line outflow. NULL,,,
7589,4/10/2016 8:49,-34.3667,150.3,HIGH RANGE,NSW,56,Associated with squall line outflow. NULL,,,
7590,21/10/2016 4:35,-30.0907,145.9382,BOURKE,NSW,48,NULL NULL,,,
7591,21/10/2016 6:12,-32.0333,147.9833,TRANGIE,NSW,51,NULL NULL,,,
7592,30/10/2016 8:21,-36.5,148.3,THREDBO,NSW,51,"Gust associated with a line of thunderstorms, following the easing of non-thunderstorm gale force winds earlier in the day. NULL",,,
7593,31/10/2016 2:40,-30.3244,153.1167,COFFS HARBOUR,NSW,61,"Gust from fast moving storm cell, likely mixing down of strong mid-tropospheric wind. NULL",,,
7594,9/11/2016 9:17,-28.9833,153.3,CORAKI,NSW,54,"Reports of 100 km/h wind gusts and hail (size unknown) via media. Also reports of TS-related blackouts through NE NSW - Ballina, Lennox, Casino, Kyogle, Bonalbo, Urbenville, Richmond Hill. Strongest reported gust on Bureau AWS 83 km/h at Lismore Airport. NULL",,,
7595,11/11/2016 8:08,-31.9539,141.4539,BROKEN HILL,NSW,54,Tornado reports from earlier in the afternoon from two storm spotter reports. NULL,,,
7596,11/11/2016 16:27,-33.1373,148.1747,PARKES,NSW,51,NULL NULL,,,
7597,12/11/2016 6:33,-30.3324,149.7812,NARRABRI,NSW,69,Storm also produced large hail. Likely supercell thunderstorm. NULL,,,
7598,5/12/2016 4:45,-32.74,151.54,MAITLAND,NSW,0,Unconfirmed spotter report of tornado plus SES report of multiple wind jobs and trees down. Unclear if tornadic or straight line gusts. NULL,,,
7599,5/12/2016 5:48,-33.9843,151.2126,MOLINEAUX POINT,NSW,52,NULL NULL,,,
7600,5/12/2016 12:31,-28.6335,153.6381,CAPE BYRON,NSW,49,NULL NULL,,,
7682,8/12/2016 3:03,-29.4494,142.0574,TIBOOBURRA,NSW,52,NULL NULL,,,
7683,8/12/2016 6:00,-30.0396,145.9507,BOURKE,NSW,51,NULL NULL,,,
7684,8/12/2016 7:48,-31.0844,150.8485,TAMWORTH,NSW,49,NULL NULL,,,
7685,8/12/2016 9:39,-31.0927,150.932,TAMWORTH,NSW,75,NULL NULL,,,
7686,8/12/2016 9:00,-31.0927,150.932,COONABARABRAN,NSW,49,NULL NULL,,,
7687,30/11/2016 4:15,-29.3238,152.6506,UPPER FINE FLOWER,NSW,54,"Reports of wind damage including snapped tree branches and uprooted trees, gusts estimated at 100km/h. Also included a report of large hail. NULL",,,
7688,17/12/2016 7:10,-29.9011,152.7036,NYMBOIDA,NSW,0, SES reported a roof off a house from winds associated with an earlier storm at Nymboida. NULL,,,
7689,20/12/2016 6:42,-34.5253,150.4217,MOSS VALE,NSW,48,NULL NULL,,,
7690,21/12/2016 6:27,-28.8667,153.05,CASINO,NSW,0,Report of roof damage from storm at Casino. NULL,,,
7691,23/12/2016 4:53,-30.5273,151.6158,ARMIDALE,NSW,52,Thunderstorm also produced heavy rainfall at same location. NULL,,,
7692,30/12/2016 8:28,-33.8281,148.6779,COWRA,NSW,51,NULL NULL,,,
7701,1/01/2017 5:40,-31.3323,149.2708,Coonabarabran,NSW,50,NULL NULL,,,
7702,9/01/2017 2:36,-36.4999,148.3166,Thredbo,NSW,49,NULL NULL,,,
7703,17/01/2017 3:49,-33.1385,148.2329,Parkes,NSW,60,"Down burst from high based convective shower, not particularly lightning active. NULL",,,
7704,18/01/2017 4:59,-32.6145,149.5733,Mudgee,NSW,70,NULL NULL,,,
7705,18/01/2017 7:07,-31.7639,150.8326,Murrurundi,NSW,49,NULL NULL,,,
7706,18/01/2017 7:00,-32.0546,150.8595,Scone,NSW,49,NULL NULL,,,
7707,20/01/2017 0:46,-35.9486,148.44,Cabramurra,NSW,54,Gusts from convective showers and strong winds aloft. Initial gust of 51 knots at 00:46 UTC then a second gust of 54 knots some time around 01:30 UTC. Included peak 10 minute mean wind speed of 37 knots at 02:00 UTC. NULL,,,
7708,20/01/2017 3:04,-30.9923,150.2369,Gunnedah,NSW,51,"Gust from squall line that also produced damage at Moree, Guyra, and Tamworth. NULL",,,
7709,20/01/2017 3:24,-29.4658,149.8339,Moree,NSW,52,"Gust from squall line that also produced damage at Gunnedah, Guyra, and Tamworth. NULL",,,
7710,20/01/2017 3:40,-31.0817,150.9345,TAMWORTH,NSW,0,Media reports of significant wind damage from squall line that also produced damaging gusts and Gunnedah and Moree. No significant gusts recorded at Tamworth AP. NULL,,,
7711,20/01/2017 5:00,-30.2151,151.6678,GUYRA,NSW,0,"Media report of significant wind damage at Guyra associated with squall line that also produced damaging gusts at Tamworth, Gunnedah and Moree. NULL",,,
7712,20/01/2017 6:57,-29.6817,152.9337,Grafton,NSW,50,"Wind gust from squall line that also produced damaging gusts at Moree, Gunnedah, Tamworth and Guyra. NULL",,,
7713,23/01/2017 7:56,-31.5208,143.3803,Wilcannia,NSW,79," 79 knot (146km/h) gust recorded at Wilcannia AP, mean speed of 49 knots (91 km/h) from a thunderstorm directly over the top of the aerodrome. Suspect a potential wet microburst event given the relatively moist mid levels and inverted V sub-cloud layer in the pre-storm environment. Surface temperature dropped from around 39C to 25C following the downburst with about 15mm of rainfall recorded. Model guidance only showing winds of 20-25 knots aloft over Wilcannia at the time. NULL",,,
7714,23/01/2017 8:38,-31.4949,145.8402,Cobar,NSW,53,"News article online reporting flash flooding and wind damage from a storm at Cobar during Monday evening (23/01), together with photos and some footage. http://www.9news.com.au/national/2017/01/24/09/35/wild-storm-smashes-nsw-town-of-cobar-sending-torrent-of-water-down-streets. NULL",,,
7715,25/01/2017 10:07,-30.3183,149.8291,Narrabri,NSW,53,NULL NULL,,,
7716,4/02/2017 5:06,-30.9808,148.3783,Coonamble,NSW,48,NULL NULL,,,
7717,4/02/2017 6:13,-32.0365,150.8311,Scone,NSW,53,"Thunderstorm produced at gust of 51 knots at 06:13 UTC, then a gust of 53 knots at 06:17 UTC. The AWS failed after 06:17 UTC. NULL",,,
7718,30/01/2017 4:46,-35.1667,147.3591,Lake Albert,NSW,41,"Media and SES reports of significant localised wind damage in Lake Albert from shower activity, with no lightning in the vicinity. Wagga Airport AWS reported maximum wind gust of 41 knots. Potential type 2 tornado but unable to verify. http://www.dailyadvertiser.com.au/story/4434026/heatwave-stirs-a-perfect-storm/?cs=147 NULL",,,
7719,11/02/2017 7:19,-34.6035,146.4097,Yanco,NSW,58,Fast moving thunderstorm. NULL,,,
7720,11/02/2017 7:33,-34.738,146.5577,Narrandera,NSW,56,Fast moving thunderstorm. Storm also produced a 58 knot gust at Yanco at 0719 UTC. NULL,,,
7721,11/02/2017 10:12,-35.1583,147.4575,Wagga Wagga,NSW,53,Fast moving thunderstorm. SES reported a significant number of jobs at Wagga from wind damage. NULL,,,
7722,11/02/2017 12:06,-34.1407,151.1185,Wattamolla,NSW,50,Fast moving thunderstorm outflow. NULL,,,
7723,17/02/2017 3:40,-34.3691,150.9291,Bellambi,NSW,48,NULL NULL,,,
7724,17/02/2017 4:22,-33.851,150.8567,Horsley Park,NSW,50,NULL NULL,,,
7725,17/02/2017 5:50,-33.6564,151.3137,Newport,NSW,60,Spotter report also included large hail and flash flooding. NULL,,,
7726,17/02/2017 6:12,-32.7886,151.3377,Cessnock,NSW,59,NULL NULL,,,
7727,17/02/2017 7:48,-31.0742,150.8362,Tamworth,NSW,51,Thunderstorms developed into a squall line type feature. NULL,,,
7728,18/02/2017 6:17,-29.4898,149.8471,Moree,NSW,52,NULL NULL,,,
7729,18/02/2017 9:09,-31.7416,150.7937,Murrurundi,NSW,54,NULL NULL,,,
7730,22/03/2017 6:53,-33.2814,151.5766,Norah Head,NSW,50,NULL NULL,,,
7731,27/03/2017 7:07,-35.1583,147.4575,Wagga Wagga,NSW,55,Fast moving line of thunderstorms. Reports of wind damage including trees down at Wagga Wagga from NSW SES. NULL,,,
7732,27/03/2017 7:26,-36.2304,148.1405,Khancoban,NSW,51,NULL NULL,,,
7733,27/03/2017 9:27,-35.3,149.1333,CANBERRA,NSW,32,"ACT SES report some jobs across northern Canberra with storm cell, including some resulting from downed trees. Wind gust recorded at Canberra Airport only 32 knots. NULL",,,
7734,4/03/2017 5:10,-33.24,149.04,Orange,NSW,49,"Spotter report of wind damage including tree branches snapped and powerlines down. Included gust estimate of 90 km/h. No significant wind gusts recorded at YORG, but that is on the other side of town. Report also included heavy rainfall. NULL",,,
7743,9/04/2017 8:03,-33.9465,151.1731,SYDNEY AIRPORT,NSW,49,Gust from a line of storms that also produced a 49 knot wind gust at Kurnell AWS. NULL,,,
7744,9/04/2017 8:09,-34.0039,151.2111,KURNELL,NSW,49,Gust from a line of storms that also produced a 49 knot wind gust at Syndey Airport AWS. NULL,,,
7745,9/04/2017 8:12,-33.9819,151.2092,PORT BOTANY,NSW,52,Gust from a line of storms that also produced a 49 knot wind gust at Syndey Airport AWS and at Kurnell AWS. NULL,,,
7746,20/01/2017 4:30,-30.9651,151.3511,WOOLBROOK,NSW,56,"Spotter report of wind damage including many large branches down and some trees down, from a squall line that produced damaging gusts in many other nearby locations. NULL",,,
7760,20/07/2017 0:34,-29.0389,167.9408,BURNT PINE,NSW,51,NULL NULL,,,
7761,28/07/2017 10:35,-29.0389,167.9408,LORD HOWE ISLAND,NSW,64,53 knot gust also recorded at YLHI AWS at 10:36 UTC. NULL,,,
7776,22/09/2017 8:40,-28.8305,153.2601,LISMORE AIRPORT,NSW,49,"YLIS AWS reported 30G49KT at 0840Z, with radar imagery confirming storm cell over Lismore at this time.%D YLIS AWS reported 30G49KT at 0840Z, with radar imagery confirming storm cell over Lismore at this time. %D",,,
7777,24/09/2017 13:55,-29.677,151.693,GLEN INNES AIRPORT,NSW,39,"Glen Innes 51kt gust with thunderstorm line. Wind gust occurred with thunderstorm line, but may have been at least partially caused by widespread windy conditions.",,,
7778,6/10/2017 6:30,-29.4567,153.2011,MACLEAN,NSW,0,Tree down and debris around - SES notified BoM at 05:34 Largely a damaging wind event.,,,
7779,26/10/2017 5:09,-35.108,147.3598,Cobar,NSW,48,NULL NULL,,,
7780,26/10/2017 5:17,-33.0682,147.2133,Condobolin,NSW,49,49 knot wind gust at Condobolin. NULL,,,
7781,26/10/2017 3:54,-31.5194,143.385,Wilcannia,NSW,51,51 knot wind Gust at Wilcannia. NULL,,,
7782,5/11/2017 7:30,-29.15,153.2833,New Italy,NSW,70,"Storm spotter in New Italy reports a very severe"" thunderstorm passed over the region at around 6:30pm.  Trees were ripped out", 'lots of damage', roads blocked," power out. Greater than 130km/hr wind gusts estimated. NULL"""
7783,6/11/2017 4:00,-32.8206,151.482,Kurri Kurri,NSW,0,"Possible destructive wind at Kurri Kurri reported from Higgins Storm Chasing (see video) at around 2pm. No windspeed directly recorded, but damage is extensive. %D https://www.facebook.com/HigginsStormChasing/posts/1581991548563293  %D http://www.maitlandmercury.com.au/story/5037615/two-injured-after-kurri-kurri-smashed-by-storm/#slide=4 NULL",,,
7784,6/11/2017 4:00,-33.2658,151.545,Toukley,NSW,0,"SES report significant wind damage/jobs at Toukley (and the Cessnock/Musswellbrook area). Note that nearby AWS at Norah Head didn't record any damaging wind gusts, averageing around 20G30 during the event). NULL",,,
7785,6/11/2017 7:00,-31.4335,152.8655,Port Maquarie,NSW,48,"The line of TS N of YTRE formed a Squal Line, and 33G48kt from W reported at YPMQ with the passage of the squall line. NULL",,,
7786,6/11/2017 7:06,-31.0711,152.7717,Kempsey,NSW,49,"The line of TS N of YTRE formed a Squall Line, and 33G49kt from SW reported at YKMP with the passage of the squall line. NULL",,,
7787,27/11/2017 6:28,-31.535,145.7933,Cobar Airport,NSW,49,Storm cell moving to the south of the airport. Cell appeared to be a right moving cell from the split of an earlier cell (as interpreted from satellite imagery). NULL,,,
7788,1/12/2017 3:23,-29.4152,142.0346,TIBOOBURRA,NSW,55,NULL NULL,,,
7789,8/12/2017 4:40,-29.7628,151.1103,Inverell,NSW,46,NULL NULL,,,
7790,19/12/2017 5:22,-36.1985,148.1346,KHANCOBAN,NSW,55,NULL NULL,,,
7791,19/12/2017 6:57,-35.5318,144.9347,DENILIQUIN,NSW,54,Squall line. NULL,,,
7793,30/12/2017 5:03,-32.6176,151.5585,Tocal,NSW,51,NULL NULL,,,
7794,30/12/2017 12:00,-29.0817,152.9511,RAPPVILLE,NSW,0,"Numerous reports of uprooted trees (including photographs, roads cut off due to fallen trees, and several houses with roof damage from a thunderstorm that went through the Lismore/Casino district about 11pm Saturday 30 December (local time), in particular between Rappville and Casino and between Casino and Lismore. Casino township was spared. NULL",,,
7795,25/11/2017 7:00,-35.575,149.215,Burra,NSW,0,"Spotter report of large branches down and trees snapped from wind gusts with thunderstorm. Gusts from between E and S. Storm time does not match radar, so time of day estimated from radar image. Report also included flash flooding. NULL",,,
7796,1/01/2018 6:06,-29.1151,153.4345,EVANS HEAD,NSW,52,NULL NULL,,,
7797,1/01/2018 7:01,-28.8317,153.5345,BALLINA,NSW,55,NULL NULL,,,
7798,1/01/2018 7:38,-28.6317,153.6345,CAPE BYRON,NSW,54,NULL NULL,,,
7799,2/01/2018 2:50,-29.4401,153.3595,YAMBA,NSW,0,Wind damages reported by Halden Boyd (Storm spotter in EVHD) at Yamba. A mast of a yacht was reported broken by winds. NULL,,,
7800,7/01/2018 4:12,-33.8984,150.8679,GREEN VALLEY,NSW,0,SES reported wind damage at several houses at Green Valley (near Liverpool). %D NULL,,,
7801,7/01/2018 4:22,-31.4985,145.8346,COBAR,NSW,52,NULL NULL,,,
7802,9/01/2018 3:41,-33.0651,147.1512,CONDOBOLIN,NSW,50,NULL NULL,,,
7803,9/01/2018 4:25,-33.3817,148.0012,FORBES,NSW,48,NULL NULL,,,
7804,9/01/2018 4:55,-33.1317,148.1679,PARKES,NSW,53,NULL NULL,,,
7806,9/01/2018 5:36,-34.6484,148.0346,COOTAMUNDRA,NSW,0,"SES report of storm cell impacting Cootamundra with heavy rain, strong winds and hail. Significant damage to Central Hotel. %D NULL",,,
7807,9/01/2018 5:54,-34.8817,150.6012,NOWRA,NSW,66,NULL NULL,,,
7808,9/01/2018 6:06,-33.2426,148.8185,URIARRA,NSW,0,"ACT SES reported a number of jobs associated with wind damage and trees down on buildings at Uriarra, just to the west of the ACT. NULL",,,
7809,9/01/2018 6:53,-34.5484,150.3679,MOSS VALE,NSW,49,NULL NULL,,,
7810,9/01/2018 6:58,-33.6151,150.2679,MOUNT BOYCE,NSW,55,NULL NULL,,,
7811,9/01/2018 7:01,-34.6651,150.8512,KIAMA,NSW,48,NULL NULL,,,
7812,12/01/2018 4:40,-34.7485,146.5512,NARRANDERA,NSW,50,NULL NULL,,,
7814,12/01/2018 5:48,-33.3817,148.0012,FORBES,NSW,59,NULL NULL,,,
7816,12/01/2018 5:30,-34.6484,148.0346,COOTAMUNDRA,NSW,0," SES reporting a surge in wind related requests for assistance (17 in half an hour) at Cootamundra, starting around 4:30pm local, mainly due to trees down. NULL",,,
7817,12/01/2018 5:30,-34.6484,148.0346,COOTAMUNDRA,NSW,0," SES reporting a surge in wind related requests for assistance (17 in half an hour) at Cootamundra, starting around 4:30pm local, mainly due to trees down. NULL",,,
7818,26/01/2018 1:45,-31.2733,149.2191,Coonabarabran,NSW,53,NULL NULL,,,
7819,9/02/2018 4:08,-34.7479,149.7277,GOULBURN,NSW,50,NULL NULL,,,
7820,11/02/2018 7:55,-30.3324,149.7812,NARRABRI,NSW,59,NULL NULL,,,
7821,19/02/2018 5:08,-30.9923,150.2369,Gunnedah,NSW,50,NULL NULL,,,
7822,3/03/2018 4:41,-29.4658,149.8339,Moree,NSW,49,NULL NULL,,,
7823,5/03/2018 3:26,-33.4193,149.5775,Bathurst,NSW,51,NULL NULL,,,
7825,13/04/2018 7:38,-35.3167,149.2,CANBERRA AIRPORT,NSW,50,NULL NULL,,,
7826,13/04/2018 7:50,-35.3167,149.2,CANBERRA AIRPORT,NSW,54,NULL NULL,,,
7827,13/04/2018 7:50,-33.379,149.1247,Orange Airport,NSW,54,NULL NULL,,,
7828,13/04/2018 8:23,-36.22,148.1269,Khancoban,NSW,52,NULL NULL,,,
7829,13/04/2018 8:41,-36.5013,148.3104,Therdbo Top Station,NSW,51,NULL NULL,,,
7830,14/04/2018 7:27,-34.9688,149.0304,Gunadah,NSW,52,NULL NULL,,,
7867,4/03/2018 3:10,-32.5817,151.2678,GLENDON,NSW,51,"Wind damage appeared straight line/like a microburst. Damage includes tree branches snapped, trees uprooted, road guides (white posts with red reflector) bent at base. Note: time of event estimated from radar. NULL",,,
8202,22/11/2018 4:11,-34.5506,150.3964,Moss Vale,NSW,48,NULL NULL,,,
8203,13/12/2018 2:50,-30.032,148.125,Walgett,NSW,53,NULL NULL,,,
8204,13/12/2018 3:22,-30.982,148.376,Coonamble,NSW,56,NULL NULL,,,
8205,13/12/2018 3:30,-30.982,148.376,Coonamble,NSW,58,NULL NULL,,,
8206,13/12/2018 3:40,-30.322,149.826,Narrabri,NSW,57,NULL NULL,,,
8207,13/12/2018 5:30,-30.976,150.25,Gunnedah,NSW,57,NULL NULL,,,
8208,13/12/2018 6:25,-31.766,150.839,Murrurundi,NSW,50,NULL NULL,,,
8209,27/11/2018 23:59,-32.7317,151.5511,MAITLAND,NSW,50,NULL NULL,,,
8210,15/12/2018 3:06,-31.777,150.83,Murrurundi,NSW,52,NULL NULL,,,
8211,15/12/2018 3:31,-32.047,150.867,Scone,NSW,51,NULL NULL,,,
8212,19/12/2018 6:45,-32.14,150.355,Merriwa,NSW,62,NULL NULL,,,
8213,20/12/2018 7:20,-33.6067,150.7512,BASE RICHMOND SECTION 1,NSW,48,NULL NULL,,,
8214,20/12/2018 7:20,-32.038,150.831,SCONE,NSW,60,NULL NULL,,,
8215,20/12/2018 7:48,-31.776,150.839,Murrurundi,NSW,62,NULL NULL,,,
8216,20/12/2018 8:07,-30.328,149.557,Narrabri,NSW,48,NULL NULL,,,
8217,21/12/2018 7:32,-28.633,153.638,Cape Byron,NSW,49,NULL NULL,,,
8218,5/01/2019 4:30,-33.2814,151.5766,Norah Head,NSW,53,NULL NULL,,,
8219,7/01/2019 6:42,-33.2814,151.5766,Temora,NSW,59,NULL NULL,,,
8220,8/01/2019 5:20,-35.139,148.869,Mullion,NSW,55,ACT PAWS02 (MUllion) NULL,,,
8221,8/01/2019 7:15,-36.678,149.841,Bega,NSW,54,ACT PAWS02 (MUllion) NULL,,,
8222,10/01/2019 6:39,-33.412,149.654,Bathurst,NSW,46,NULL NULL,,,
8223,11/01/2019 2:59,-31.54,145.797,Cobar,NSW,58,NULL NULL,,,
8224,11/01/2019 2:59,-34.865,148.867,Yass,NSW,54,Wind estimated. Tree branches snapped. NULL,,,
8225,11/01/2019 5:14,-33.8317,148.6512,COWRA AIRPORT,NSW,56,NULL NULL,,,
8226,15/01/2019 12:10,-34.4151,147.5179,TEMORA,NSW,59,NULL NULL,,,
8227,20/01/2019 5:55,-30.328,149.557,Narrabri,NSW,51,NULL NULL,,,
8228,22/01/2019 4:12,-36.0652,146.9347,ALBURY AIRPORT,NSW,52,NULL NULL,,,
8229,22/01/2019 12:35,-33.1317,148.2346,Parkes,NSW,53,NULL NULL,,,
8230,22/01/2019 14:20,-32.248,148.603,Dubbo,NSW,51,NULL NULL,,,
8231,23/01/2019 5:07,-32.7151,150.2346,NULLO MOUNTAIN,NSW,49,NULL NULL,,,
8232,23/01/2019 8:22,-33.1317,148.1679,PARKES,NSW,52,NULL NULL,,,
8233,25/01/2019 9:30,-34.4985,144.8347,HAY,NSW,56,NULL NULL,,,
8234,27/01/2019 10:19,-33.3984,149.7512,BATHURST AIRPORT,NSW,57,NULL NULL,,,
8235,29/01/2019 9:22,-34.622,146.4326,Yanco,NSW,56,NULL NULL,,,
8236,9/02/2019 9:36,-30.3151,153.1178,COFFS HARBOUR AIRPORT,NSW,52,NULL NULL,,,
8237,18/02/2019 5:09,-35.9318,148.3679,CABRAMURRA,NSW,49,NULL NULL,,,
8238,18/02/2019 5:56,-35.139,148.869,Mullion,NSW,49,NULL NULL,,,
8240,5/03/2019 5:41,-33.306,146.368,Narrandera,NSW,55,NULL NULL,,,
8241,5/03/2019 6:00,-36.0652,146.9013,ALBURY,NSW,56,NULL NULL,,,
8242,5/03/2019 7:38,-36.1985,148.1346,KHANCOBAN,NSW,53,NULL NULL,,,
8243,9/03/2019 4:11,-31.906,152.457,Taree,NSW,54,NULL NULL,,,
8244,28/09/2018 7:25,-34.0151,151.2012,KURNELL,NSW,50,NULL NULL,,,
8245,3/10/2018 9:12,-31.9652,141.4597,BROKEN HILL,NSW,59,NULL NULL,,,
8246,23/03/2019 10:33,-31.7651,150.8345,MURRURUNDI,NSW,54,NULL NULL,,,
8247,29/03/2019 5:58,-35.3333,149.1333,GRIFFITH,NSW,71,NULL NULL,,,
8248,20/12/2018 5:11,-32.2567,148.6012,DUBBO,NSW,50,NULL NULL,,,
8249,9/04/2019 5:05,-30.514,151.666,Armidale,NSW,49,NULL NULL,,,
8254,18/11/2019 10:12,0,0,Jabiru,NSW,60,NULL NULL,,,
